{
  "type": "FeatureCollection",
  "generator": "overpass-turbo",
  "copyright": "The data included in this document is from www.openstreetmap.org. The data is made available under ODbL.",
  "timestamp": "2026-03-09T09:55:00Z",
  "features": [
    {
      "type": "Feature",
      "properties": {
        "@id": "node/288460621",
        "bus": "yes",
        "highway": "bus_stop",
        "name": "Quezon Avenue & Lung Center of the Philippines",
        "network": "LTFRB–National Capital Region",
        "network:wikidata": "Q6483998",
        "public_transport": "platform",
        "route_ref": "5;6;7;T392"
      },
      "geometry": {
        "type": "Point",
        "coordinates": [
          121.0461779,
          14.6492513
        ]
      },
      "id": "node/288460621"
    },
    {
      "type": "Feature",
      "properties": {
        "@id": "node/315783550",
        "bus": "yes",
        "highway": "bus_stop",
        "name": "Roosevelt",
        "network": "LTFRB PUB",
        "network:wikidata": "Q6483998",
        "public_transport": "platform",
        "shelter": "yes"
      },
      "geometry": {
        "type": "Point",
        "coordinates": [
          121.0196921,
          14.6576553
        ]
      },
      "id": "node/315783550"
    },
    {
      "type": "Feature",
      "properties": {
        "@id": "node/361337756",
        "bus": "yes",
        "highway": "bus_stop",
        "name": "Roosevelt",
        "network": "LTFRB PUB",
        "network:wikidata": "Q6483998",
        "public_transport": "platform"
      },
      "geometry": {
        "type": "Point",
        "coordinates": [
          121.01996,
          14.6576544
        ]
      },
      "id": "node/361337756"
    },
    {
      "type": "Feature",
      "properties": {
        "@id": "node/453007803",
        "bench": "no",
        "bus": "yes",
        "highway": "bus_stop",
        "name": "Congressional Avenue & Mindanao Avenue",
        "network": "LTFRB PUB;QCityBus",
        "operator": "Lungsod Quezon",
        "public_transport": "platform",
        "route_ref": "18;QC4",
        "shelter": "no",
        "wheelchair": "limited"
      },
      "geometry": {
        "type": "Point",
        "coordinates": [
          121.0349943,
          14.6687738
        ]
      },
      "id": "node/453007803"
    },
    {
      "type": "Feature",
      "properties": {
        "@id": "node/612200989",
        "bench": "no",
        "bus": "yes",
        "covered": "no",
        "highway": "bus_stop",
        "name": "NLEX & Camachile Footbridge",
        "network": "LTFRB–National Capital Region",
        "network:wikidata": "Q6483998",
        "public_transport": "platform"
      },
      "geometry": {
        "type": "Point",
        "coordinates": [
          120.9998406,
          14.6610759
        ]
      },
      "id": "node/612200989"
    },
    {
      "type": "Feature",
      "properties": {
        "@id": "node/957845497",
        "highway": "bus_stop",
        "name": "Araneta Center-Cubao",
        "network": "LTFRB PUB",
        "network:wikidata": "Q6483998",
        "public_transport": "platform",
        "route_ref": "51;53;59;59C;59E;59N"
      },
      "geometry": {
        "type": "Point",
        "coordinates": [
          121.0510402,
          14.6199262
        ]
      },
      "id": "node/957845497"
    },
    {
      "type": "Feature",
      "properties": {
        "@id": "node/964500084",
        "bus": "yes",
        "covered": "no",
        "highway": "bus_stop",
        "name": "NLEX & Camachile Footbridge",
        "public_transport": "platform"
      },
      "geometry": {
        "type": "Point",
        "coordinates": [
          121.0000151,
          14.6617621
        ]
      },
      "id": "node/964500084"
    },
    {
      "type": "Feature",
      "properties": {
        "@id": "node/965544379",
        "bus": "yes",
        "highway": "bus_stop",
        "name": "NIA Road & BIR Compound",
        "public_transport": "platform",
        "route_ref": "5;7"
      },
      "geometry": {
        "type": "Point",
        "coordinates": [
          121.0421965,
          14.6416755
        ]
      },
      "id": "node/965544379"
    },
    {
      "type": "Feature",
      "properties": {
        "@id": "node/965963198",
        "bus": "yes",
        "highway": "bus_stop",
        "name": "SM City North EDSA",
        "public_transport": "platform"
      },
      "geometry": {
        "type": "Point",
        "coordinates": [
          121.0281126,
          14.6560375
        ]
      },
      "id": "node/965963198"
    },
    {
      "type": "Feature",
      "properties": {
        "@id": "node/975761263",
        "bus": "yes",
        "highway": "bus_stop",
        "name": "Commonwealth Avenue & Doña Carmen Subdivision",
        "network": "LTFRB–National Capital Region",
        "network:wikidata": "Q6483998",
        "public_transport": "platform"
      },
      "geometry": {
        "type": "Point",
        "coordinates": [
          121.0775871,
          14.7052581
        ]
      },
      "id": "node/975761263"
    },
    {
      "type": "Feature",
      "properties": {
        "@id": "node/1460734524",
        "highway": "bus_stop",
        "name": "SM City Fairview",
        "network": "LTFRB–National Capital Region",
        "network:wikidata": "Q6483998",
        "public_transport": "platform"
      },
      "geometry": {
        "type": "Point",
        "coordinates": [
          121.0571627,
          14.7351344
        ]
      },
      "id": "node/1460734524"
    },
    {
      "type": "Feature",
      "properties": {
        "@id": "node/1649835257",
        "bus": "yes",
        "highway": "bus_stop",
        "name": "HM Transport Cubao",
        "public_transport": "platform"
      },
      "geometry": {
        "type": "Point",
        "coordinates": [
          121.0488529,
          14.6234058
        ]
      },
      "id": "node/1649835257"
    },
    {
      "type": "Feature",
      "properties": {
        "@id": "node/1696984595",
        "bus": "yes",
        "highway": "bus_stop",
        "name": "Daet Express Cubao",
        "public_transport": "platform"
      },
      "geometry": {
        "type": "Point",
        "coordinates": [
          121.0483694,
          14.6246822
        ]
      },
      "id": "node/1696984595"
    },
    {
      "type": "Feature",
      "properties": {
        "@id": "node/1802322522",
        "bench": "no",
        "bus": "yes",
        "highway": "bus_stop",
        "name": "Commonwealth Avenue & Central Avenue",
        "public_transport": "platform",
        "shelter": "no"
      },
      "geometry": {
        "type": "Point",
        "coordinates": [
          121.0637453,
          14.6604134
        ]
      },
      "id": "node/1802322522"
    },
    {
      "type": "Feature",
      "properties": {
        "@id": "node/1923381237",
        "bus": "yes",
        "highway": "bus_stop",
        "name": "Mindanao Avenue & Puregold",
        "network": "LTFRB–National Capital Region",
        "network:wikidata": "Q6483998",
        "public_transport": "platform",
        "shelter": "yes"
      },
      "geometry": {
        "type": "Point",
        "coordinates": [
          121.0350371,
          14.6664348
        ]
      },
      "id": "node/1923381237"
    },
    {
      "type": "Feature",
      "properties": {
        "@id": "node/2212489545",
        "bus": "yes",
        "highway": "bus_stop",
        "public_transport": "platform",
        "shelter": "yes"
      },
      "geometry": {
        "type": "Point",
        "coordinates": [
          121.0729638,
          14.6541777
        ]
      },
      "id": "node/2212489545"
    },
    {
      "type": "Feature",
      "properties": {
        "@id": "node/2212489546",
        "bus": "yes",
        "highway": "bus_stop",
        "name": "M. Roxas Avenue & Vinzons Hall",
        "network": "LTFRB–National Capital Region",
        "network:wikidata": "Q6483998",
        "public_transport": "platform",
        "shelter": "yes"
      },
      "geometry": {
        "type": "Point",
        "coordinates": [
          121.0731022,
          14.6544042
        ]
      },
      "id": "node/2212489546"
    },
    {
      "type": "Feature",
      "properties": {
        "@id": "node/2212492442",
        "bench": "no",
        "bin": "no",
        "bus": "yes",
        "highway": "bus_stop",
        "public_transport": "platform",
        "shelter": "yes"
      },
      "geometry": {
        "type": "Point",
        "coordinates": [
          121.0687215,
          14.6524651
        ]
      },
      "id": "node/2212492442"
    },
    {
      "type": "Feature",
      "properties": {
        "@id": "node/2212541109",
        "bus": "yes",
        "highway": "bus_stop",
        "public_transport": "platform",
        "shelter": "yes"
      },
      "geometry": {
        "type": "Point",
        "coordinates": [
          121.0713689,
          14.6538598
        ]
      },
      "id": "node/2212541109"
    },
    {
      "type": "Feature",
      "properties": {
        "@id": "node/2212541112",
        "highway": "bus_stop"
      },
      "geometry": {
        "type": "Point",
        "coordinates": [
          121.0652678,
          14.6538142
        ]
      },
      "id": "node/2212541112"
    },
    {
      "type": "Feature",
      "properties": {
        "@id": "node/2212544800",
        "bench": "no",
        "bin": "no",
        "bus": "yes",
        "highway": "bus_stop",
        "lit": "yes",
        "name": "Kalayaan Residence Hall",
        "public_transport": "platform",
        "shelter": "yes"
      },
      "geometry": {
        "type": "Point",
        "coordinates": [
          121.0684896,
          14.6588589
        ]
      },
      "id": "node/2212544800"
    },
    {
      "type": "Feature",
      "properties": {
        "@id": "node/2212544801",
        "bench": "no",
        "bus": "yes",
        "highway": "bus_stop",
        "name": "Laurel Avenue & UP Coop",
        "network": "LTFRB–National Capital Region",
        "network:wikidata": "Q6483998",
        "public_transport": "platform",
        "shelter": "yes"
      },
      "geometry": {
        "type": "Point",
        "coordinates": [
          121.0688691,
          14.6594936
        ]
      },
      "id": "node/2212544801"
    },
    {
      "type": "Feature",
      "properties": {
        "@id": "node/2212544802",
        "bench": "yes",
        "bin": "no",
        "bus": "yes",
        "highway": "bus_stop",
        "lit": "yes",
        "name": "Laurel Avenue & UP Shopping Center",
        "network": "LTFRB–National Capital Region",
        "network:wikidata": "Q6483998",
        "public_transport": "platform",
        "shelter": "yes"
      },
      "geometry": {
        "type": "Point",
        "coordinates": [
          121.0702326,
          14.6594692
        ]
      },
      "id": "node/2212544802"
    },
    {
      "type": "Feature",
      "properties": {
        "@id": "node/2212544803",
        "bus": "yes",
        "highway": "bus_stop",
        "name": "Laurel Avenue & F. Agoncillo Street",
        "network": "LTFRB–National Capital Region",
        "network:wikidata": "Q6483998",
        "public_transport": "platform",
        "shelter": "yes"
      },
      "geometry": {
        "type": "Point",
        "coordinates": [
          121.0717715,
          14.659481
        ]
      },
      "id": "node/2212544803"
    },
    {
      "type": "Feature",
      "properties": {
        "@id": "node/2212544805",
        "bus": "yes",
        "highway": "bus_stop",
        "name": "F. Maria Guerrero Street & Romulo Hall",
        "network": "LTFRB–National Capital Region",
        "network:wikidata": "Q6483998",
        "public_transport": "platform",
        "shelter": "yes"
      },
      "geometry": {
        "type": "Point",
        "coordinates": [
          121.072802,
          14.6567934
        ]
      },
      "id": "node/2212544805"
    },
    {
      "type": "Feature",
      "properties": {
        "@id": "node/2212544806",
        "bus": "yes",
        "highway": "bus_stop",
        "public_transport": "platform",
        "shelter": "yes"
      },
      "geometry": {
        "type": "Point",
        "coordinates": [
          121.0732758,
          14.6555453
        ]
      },
      "id": "node/2212544806"
    },
    {
      "type": "Feature",
      "properties": {
        "@id": "node/2212550184",
        "bus": "yes",
        "highway": "bus_stop",
        "public_transport": "platform",
        "shelter": "yes"
      },
      "geometry": {
        "type": "Point",
        "coordinates": [
          121.0622635,
          14.6546398
        ]
      },
      "id": "node/2212550184"
    },
    {
      "type": "Feature",
      "properties": {
        "@id": "node/2212550185",
        "bus": "yes",
        "highway": "bus_stop",
        "public_transport": "platform",
        "shelter": "yes"
      },
      "geometry": {
        "type": "Point",
        "coordinates": [
          121.0623932,
          14.6569931
        ]
      },
      "id": "node/2212550185"
    },
    {
      "type": "Feature",
      "properties": {
        "@id": "node/2212992582",
        "highway": "bus_stop",
        "shelter": "yes"
      },
      "geometry": {
        "type": "Point",
        "coordinates": [
          121.0697618,
          14.6497861
        ]
      },
      "id": "node/2212992582"
    },
    {
      "type": "Feature",
      "properties": {
        "@id": "node/2225488890",
        "bus": "yes",
        "highway": "bus_stop",
        "public_transport": "platform",
        "shelter": "yes"
      },
      "geometry": {
        "type": "Point",
        "coordinates": [
          121.0624813,
          14.6576263
        ]
      },
      "id": "node/2225488890"
    },
    {
      "type": "Feature",
      "properties": {
        "@id": "node/2225488892",
        "highway": "bus_stop",
        "jeepney": "yes",
        "name": "Jeepney stop",
        "public_transport": "platform"
      },
      "geometry": {
        "type": "Point",
        "coordinates": [
          121.0649407,
          14.657466
        ]
      },
      "id": "node/2225488892"
    },
    {
      "type": "Feature",
      "properties": {
        "@id": "node/2225488893",
        "highway": "bus_stop",
        "name": "Jeepney stop"
      },
      "geometry": {
        "type": "Point",
        "coordinates": [
          121.0663743,
          14.6574608
        ]
      },
      "id": "node/2225488893"
    },
    {
      "type": "Feature",
      "properties": {
        "@id": "node/2452750426",
        "bus": "yes",
        "highway": "bus_stop",
        "name": "Katipunan Jeepney Stop",
        "public_transport": "platform"
      },
      "geometry": {
        "type": "Point",
        "coordinates": [
          121.0727779,
          14.6539116
        ]
      },
      "id": "node/2452750426"
    },
    {
      "type": "Feature",
      "properties": {
        "@id": "node/2508958956",
        "bus": "yes",
        "highway": "bus_stop",
        "name": "Quirino Highway & Rockville Avenue",
        "network": "LTFRB–National Capital Region",
        "network:wikidata": "Q6483998",
        "public_transport": "platform"
      },
      "geometry": {
        "type": "Point",
        "coordinates": [
          121.0353445,
          14.7015252
        ]
      },
      "id": "node/2508958956"
    },
    {
      "type": "Feature",
      "properties": {
        "@id": "node/2672504778",
        "highway": "bus_stop",
        "note": "Jeepney Stop"
      },
      "geometry": {
        "type": "Point",
        "coordinates": [
          121.0685916,
          14.6573523
        ]
      },
      "id": "node/2672504778"
    },
    {
      "type": "Feature",
      "properties": {
        "@id": "node/2672507929",
        "bench": "yes",
        "bin": "no",
        "highway": "bus_stop",
        "name": "Molave Residence Hall",
        "public_transport": "platform",
        "shelter": "yes"
      },
      "geometry": {
        "type": "Point",
        "coordinates": [
          121.06853,
          14.6577089
        ]
      },
      "id": "node/2672507929"
    },
    {
      "type": "Feature",
      "properties": {
        "@id": "node/2672509720",
        "highway": "bus_stop"
      },
      "geometry": {
        "type": "Point",
        "coordinates": [
          121.0622843,
          14.6498085
        ]
      },
      "id": "node/2672509720"
    },
    {
      "type": "Feature",
      "properties": {
        "@id": "node/2672510501",
        "bus": "yes",
        "highway": "bus_stop",
        "name": "Laurel Avenue & UP Coop",
        "network": "LTFRB–National Capital Region",
        "network:wikidata": "Q6483998",
        "public_transport": "platform",
        "shelter": "yes"
      },
      "geometry": {
        "type": "Point",
        "coordinates": [
          121.0691107,
          14.6593612
        ]
      },
      "id": "node/2672510501"
    },
    {
      "type": "Feature",
      "properties": {
        "@id": "node/2672510538",
        "bus": "yes",
        "highway": "bus_stop",
        "name": "Lakandula Street & Albert Hall",
        "network": "LTFRB–National Capital Region",
        "network:wikidata": "Q6483998",
        "public_transport": "platform",
        "shelter": "yes"
      },
      "geometry": {
        "type": "Point",
        "coordinates": [
          121.0633697,
          14.6530318
        ]
      },
      "id": "node/2672510538"
    },
    {
      "type": "Feature",
      "properties": {
        "@id": "node/2672518613",
        "highway": "bus_stop",
        "shelter": "yes"
      },
      "geometry": {
        "type": "Point",
        "coordinates": [
          121.0647152,
          14.6573545
        ]
      },
      "id": "node/2672518613"
    },
    {
      "type": "Feature",
      "properties": {
        "@id": "node/2672529903",
        "highway": "bus_stop",
        "shelter": "yes"
      },
      "geometry": {
        "type": "Point",
        "coordinates": [
          121.0622682,
          14.652884
        ]
      },
      "id": "node/2672529903"
    },
    {
      "type": "Feature",
      "properties": {
        "@id": "node/2672533885",
        "bus": "yes",
        "highway": "bus_stop",
        "public_transport": "platform",
        "shelter": "yes"
      },
      "geometry": {
        "type": "Point",
        "coordinates": [
          121.062276,
          14.6505865
        ]
      },
      "id": "node/2672533885"
    },
    {
      "type": "Feature",
      "properties": {
        "@id": "node/2672540447",
        "bus": "yes",
        "highway": "bus_stop",
        "name": "School of Urban and Regional Planning",
        "public_transport": "platform",
        "shelter": "yes"
      },
      "geometry": {
        "type": "Point",
        "coordinates": [
          121.0624567,
          14.6577643
        ]
      },
      "id": "node/2672540447"
    },
    {
      "type": "Feature",
      "properties": {
        "@id": "node/2672540479",
        "bus": "yes",
        "highway": "bus_stop",
        "public_transport": "platform",
        "shelter": "yes"
      },
      "geometry": {
        "type": "Point",
        "coordinates": [
          121.0622295,
          14.6545454
        ]
      },
      "id": "node/2672540479"
    },
    {
      "type": "Feature",
      "properties": {
        "@id": "node/2672540480",
        "bus": "yes",
        "highway": "bus_stop",
        "name": "University Avenue & UP Checkpoint",
        "network": "LTFRB–National Capital Region",
        "network:wikidata": "Q6483998",
        "public_transport": "platform",
        "shelter": "yes"
      },
      "geometry": {
        "type": "Point",
        "coordinates": [
          121.0620023,
          14.6546684
        ]
      },
      "id": "node/2672540480"
    },
    {
      "type": "Feature",
      "properties": {
        "@id": "node/2672542447",
        "bus": "yes",
        "highway": "bus_stop",
        "public_transport": "platform",
        "shelter": "yes"
      },
      "geometry": {
        "type": "Point",
        "coordinates": [
          121.0656396,
          14.6513855
        ]
      },
      "id": "node/2672542447"
    },
    {
      "type": "Feature",
      "properties": {
        "@id": "node/2672548547",
        "bus": "yes",
        "highway": "bus_stop",
        "name": "Magsaysay Avenue & Ylanan Street",
        "network": "LTFRB–National Capital Region",
        "network:wikidata": "Q6483998",
        "public_transport": "platform",
        "shelter": "yes"
      },
      "geometry": {
        "type": "Point",
        "coordinates": [
          121.0650081,
          14.6576696
        ]
      },
      "id": "node/2672548547"
    },
    {
      "type": "Feature",
      "properties": {
        "@id": "node/2672562969",
        "bus": "yes",
        "highway": "bus_stop",
        "name": "Quirino Avenue & NSRI",
        "network": "LTFRB–National Capital Region",
        "network:wikidata": "Q6483998",
        "public_transport": "platform",
        "shelter": "yes"
      },
      "geometry": {
        "type": "Point",
        "coordinates": [
          121.0688559,
          14.6524213
        ]
      },
      "id": "node/2672562969"
    },
    {
      "type": "Feature",
      "properties": {
        "@id": "node/2672567647",
        "bus": "yes",
        "highway": "bus_stop",
        "public_transport": "platform",
        "shelter": "yes"
      },
      "geometry": {
        "type": "Point",
        "coordinates": [
          121.0730894,
          14.6555749
        ]
      },
      "id": "node/2672567647"
    },
    {
      "type": "Feature",
      "properties": {
        "@id": "node/2672567648",
        "bus": "yes",
        "highway": "bus_stop",
        "name": "Osmeña Avenue & School of Economics",
        "network": "LTFRB–National Capital Region",
        "network:wikidata": "Q6483998",
        "public_transport": "platform",
        "shelter": "yes"
      },
      "geometry": {
        "type": "Point",
        "coordinates": [
          121.0730597,
          14.6559227
        ]
      },
      "id": "node/2672567648"
    },
    {
      "type": "Feature",
      "properties": {
        "@id": "node/2672568217",
        "bench": "no",
        "bin": "no",
        "check_date:shelter": "2025-02-12",
        "highway": "bus_stop",
        "lit": "no",
        "name:signed": "no",
        "shelter": "yes"
      },
      "geometry": {
        "type": "Point",
        "coordinates": [
          121.0656754,
          14.6478553
        ]
      },
      "id": "node/2672568217"
    },
    {
      "type": "Feature",
      "properties": {
        "@id": "node/2947132871",
        "bus": "yes",
        "highway": "bus_stop",
        "name": "Osmeña Avenue & UP Film Hall",
        "network": "LTFRB–National Capital Region",
        "network:wikidata": "Q6483998",
        "public_transport": "platform",
        "shelter": "yes"
      },
      "geometry": {
        "type": "Point",
        "coordinates": [
          121.0670615,
          14.6561658
        ]
      },
      "id": "node/2947132871"
    },
    {
      "type": "Feature",
      "properties": {
        "@id": "node/2947141870",
        "amenity": "shelter",
        "bench": "no",
        "bin": "no",
        "highway": "bus_stop",
        "name": "Tennis Court",
        "public_transport": "platform",
        "shelter": "yes",
        "shelter_type": "public_transport"
      },
      "geometry": {
        "type": "Point",
        "coordinates": [
          121.0679105,
          14.6574873
        ]
      },
      "id": "node/2947141870"
    },
    {
      "type": "Feature",
      "properties": {
        "@id": "node/3143631706",
        "bench": "no",
        "bin": "no",
        "highway": "bus_stop",
        "lit": "yes",
        "name": "Toki Jeepney Stop",
        "network": "Toki",
        "shelter": "yes"
      },
      "geometry": {
        "type": "Point",
        "coordinates": [
          121.0736863,
          14.6498525
        ]
      },
      "id": "node/3143631706"
    },
    {
      "type": "Feature",
      "properties": {
        "@id": "node/3191217949",
        "bench": "yes",
        "bus": "yes",
        "highway": "bus_stop",
        "name": "Commonwealth Avenue & Ever Gotesco",
        "network": "LTFRB–National Capital Region",
        "network:wikidata": "Q6483998",
        "operator": "Metropolitan Manila Development Authority",
        "public_transport": "platform",
        "shelter": "yes"
      },
      "geometry": {
        "type": "Point",
        "coordinates": [
          121.0842628,
          14.6795249
        ]
      },
      "id": "node/3191217949"
    },
    {
      "type": "Feature",
      "properties": {
        "@id": "node/3309043222",
        "alt_name": "Rosa Alvero",
        "bus": "yes",
        "highway": "bus_stop",
        "name": "Katipunan Avenue & ADMU Gate 2",
        "network": "LTFRB PUB",
        "network:wikidata": "Q6483998",
        "operator": "Lungsod Quezon",
        "public_transport": "platform",
        "shelter": "no"
      },
      "geometry": {
        "type": "Point",
        "coordinates": [
          121.0741892,
          14.6368582
        ]
      },
      "id": "node/3309043222"
    },
    {
      "type": "Feature",
      "properties": {
        "@id": "node/3309043226",
        "bench": "no",
        "bus": "yes",
        "highway": "bus_stop",
        "name": "Congressional Avenue Extension & Virginia Street",
        "network": "LTFRB PUB",
        "network:wikidata": "Q6483998",
        "public_transport": "platform",
        "shelter": "no"
      },
      "geometry": {
        "type": "Point",
        "coordinates": [
          121.0399225,
          14.671291
        ]
      },
      "id": "node/3309043226"
    },
    {
      "type": "Feature",
      "properties": {
        "@id": "node/3309043227",
        "bus": "yes",
        "highway": "bus_stop",
        "name": "Congressional Avenue Extension & Tandang Sora Extension",
        "network": "LTFRB PUB",
        "network:wikidata": "Q6483998",
        "public_transport": "platform",
        "shelter": "no"
      },
      "geometry": {
        "type": "Point",
        "coordinates": [
          121.0497951,
          14.6732977
        ]
      },
      "id": "node/3309043227"
    },
    {
      "type": "Feature",
      "properties": {
        "@id": "node/3309043229",
        "bus": "yes",
        "highway": "bus_stop",
        "name": "Congressional Avenue Extension & Tandang Sora Extension",
        "network": "LTFRB PUB",
        "network:wikidata": "Q6483998",
        "public_transport": "platform",
        "shelter": "no"
      },
      "geometry": {
        "type": "Point",
        "coordinates": [
          121.0482442,
          14.673198
        ]
      },
      "id": "node/3309043229"
    },
    {
      "type": "Feature",
      "properties": {
        "@id": "node/3309043233",
        "alt_name": "Miriam College",
        "bench": "no",
        "bus": "yes",
        "highway": "bus_stop",
        "name": "Katipunan Avenue & B. Gonzales Street",
        "network": "LTFRB PUB",
        "network:wikidata": "Q6483998",
        "public_transport": "platform",
        "shelter": "no"
      },
      "geometry": {
        "type": "Point",
        "coordinates": [
          121.0744447,
          14.6415067
        ]
      },
      "id": "node/3309043233"
    },
    {
      "type": "Feature",
      "properties": {
        "@id": "node/3309043234",
        "alt_name": "MWSS",
        "bus": "yes",
        "highway": "bus_stop",
        "name": "Katipunan Avenue & Magsaysay Avenue",
        "network": "LTFRB–National Capital Region",
        "network:wikidata": "Q6483998",
        "operator": "Land Transportation Franchising and Regulatory Board",
        "public_transport": "platform",
        "shelter": "no"
      },
      "geometry": {
        "type": "Point",
        "coordinates": [
          121.0745984,
          14.6570347
        ]
      },
      "id": "node/3309043234"
    },
    {
      "type": "Feature",
      "properties": {
        "@id": "node/3309043235",
        "alt_name": "MWSS",
        "bus": "yes",
        "highway": "bus_stop",
        "name": "Katipunan Avenue & Magsaysay Avenue",
        "network": "LTFRB–National Capital Region",
        "network:wikidata": "Q6483998",
        "operator": "Land Transportation Franchising and Regulatory Board",
        "public_transport": "platform",
        "shelter": "no"
      },
      "geometry": {
        "type": "Point",
        "coordinates": [
          121.0741532,
          14.6569711
        ]
      },
      "id": "node/3309043235"
    },
    {
      "type": "Feature",
      "properties": {
        "@id": "node/3309043239",
        "bench": "no",
        "bin": "yes",
        "bus": "yes",
        "highway": "bus_stop",
        "name": "Congressional Avenue Extension & Virginia Street",
        "network": "LTFRB PUB",
        "network:wikidata": "Q6483998",
        "public_transport": "platform",
        "shelter": "no"
      },
      "geometry": {
        "type": "Point",
        "coordinates": [
          121.0389452,
          14.6707938
        ]
      },
      "id": "node/3309043239"
    },
    {
      "type": "Feature",
      "properties": {
        "@id": "node/3309043251",
        "bus": "yes",
        "highway": "bus_stop",
        "name": "Katipunan Avenue & UP Town Center",
        "network": "LTFRB PUB",
        "network:wikidata": "Q6483998",
        "public_transport": "platform",
        "shelter": "no"
      },
      "geometry": {
        "type": "Point",
        "coordinates": [
          121.0745569,
          14.6497039
        ]
      },
      "id": "node/3309043251"
    },
    {
      "type": "Feature",
      "properties": {
        "@id": "node/3597005818",
        "bench": "no",
        "bin": "no",
        "bus": "yes",
        "highway": "bus_stop",
        "name": "Unang Hakbang Street/Luzon Avenue",
        "network": "LTFRB National Capital Region",
        "network:wikidata": "Q6483998",
        "public_transport": "platform",
        "shelter": "no"
      },
      "geometry": {
        "type": "Point",
        "coordinates": [
          121.0084592,
          14.6121872
        ]
      },
      "id": "node/3597005818"
    },
    {
      "type": "Feature",
      "properties": {
        "@id": "node/3653669400",
        "bus": "yes",
        "highway": "bus_stop",
        "public_transport": "platform"
      },
      "geometry": {
        "type": "Point",
        "coordinates": [
          121.0760779,
          14.6407744
        ]
      },
      "id": "node/3653669400"
    },
    {
      "type": "Feature",
      "properties": {
        "@id": "node/3763720540",
        "bus": "yes",
        "highway": "bus_stop",
        "name": "UP Toki",
        "public_transport": "platform"
      },
      "geometry": {
        "type": "Point",
        "coordinates": [
          121.0623234,
          14.6578376
        ]
      },
      "id": "node/3763720540"
    },
    {
      "type": "Feature",
      "properties": {
        "@id": "node/3915937154",
        "bus": "yes",
        "highway": "bus_stop",
        "name": "German Espiritu Liner Cubao",
        "public_transport": "platform"
      },
      "geometry": {
        "type": "Point",
        "coordinates": [
          121.0515461,
          14.6180441
        ]
      },
      "id": "node/3915937154"
    },
    {
      "type": "Feature",
      "properties": {
        "@id": "node/3922314208",
        "bus": "yes",
        "highway": "bus_stop",
        "name": "Commonwealth Avenue & Regalado Avenue",
        "network": "LTFRB–National Capital Region",
        "network:wikidata": "Q6483998",
        "public_transport": "platform"
      },
      "geometry": {
        "type": "Point",
        "coordinates": [
          121.0701177,
          14.7063745
        ]
      },
      "id": "node/3922314208"
    },
    {
      "type": "Feature",
      "properties": {
        "@id": "node/3979187257",
        "highway": "bus_stop",
        "shelter": "no"
      },
      "geometry": {
        "type": "Point",
        "coordinates": [
          121.0689998,
          14.6485158
        ]
      },
      "id": "node/3979187257"
    },
    {
      "type": "Feature",
      "properties": {
        "@id": "node/3979190858",
        "bench": "no",
        "bin": "no",
        "bus": "yes",
        "highway": "bus_stop",
        "lit": "yes",
        "name": "Krus na Ligas",
        "network": "QCityBus;PUJ",
        "operator": "Lungsod Quezon",
        "public_transport": "platform",
        "route_ref": "QC7",
        "shelter": "no"
      },
      "geometry": {
        "type": "Point",
        "coordinates": [
          121.0648402,
          14.6476482
        ]
      },
      "id": "node/3979190858"
    },
    {
      "type": "Feature",
      "properties": {
        "@id": "node/3979191192",
        "highway": "bus_stop"
      },
      "geometry": {
        "type": "Point",
        "coordinates": [
          121.0622878,
          14.6478354
        ]
      },
      "id": "node/3979191192"
    },
    {
      "type": "Feature",
      "properties": {
        "@id": "node/4265752905",
        "highway": "bus_stop",
        "name": "SM City Novaliches",
        "network": "LTFRB–National Capital Region",
        "network:wikidata": "Q6483998",
        "public_transport": "platform"
      },
      "geometry": {
        "type": "Point",
        "coordinates": [
          121.0387884,
          14.7080992
        ]
      },
      "id": "node/4265752905"
    },
    {
      "type": "Feature",
      "properties": {
        "@id": "node/4265803207",
        "bus": "yes",
        "highway": "bus_stop",
        "name": "Santa Lucia Jeepney Terminal",
        "network": "LTFRB–National Capital Region",
        "network:wikidata": "Q6483998",
        "operator": "Santa Lucia Transport Service Cooperative",
        "public_transport": "platform"
      },
      "geometry": {
        "type": "Point",
        "coordinates": [
          121.0527864,
          14.7058033
        ]
      },
      "id": "node/4265803207"
    },
    {
      "type": "Feature",
      "properties": {
        "@id": "node/4265806998",
        "highway": "bus_stop"
      },
      "geometry": {
        "type": "Point",
        "coordinates": [
          121.0620296,
          14.7091552
        ]
      },
      "id": "node/4265806998"
    },
    {
      "type": "Feature",
      "properties": {
        "@id": "node/4265809403",
        "bus": "yes",
        "highway": "bus_stop",
        "name": "Susana Jeepney Terminal",
        "network": "LTFRB–National Capital Region",
        "network:wikidata": "Q6483998",
        "public_transport": "platform",
        "shelter": "yes"
      },
      "geometry": {
        "type": "Point",
        "coordinates": [
          121.0397304,
          14.7086001
        ]
      },
      "id": "node/4265809403"
    },
    {
      "type": "Feature",
      "properties": {
        "@id": "node/4333492990",
        "bus": "yes",
        "highway": "bus_stop",
        "name": "Commonwealth Avenue & Mindanao Avenue",
        "network": "LTFRB–National Capital Region",
        "network:wikidata": "Q6483998",
        "public_transport": "platform"
      },
      "geometry": {
        "type": "Point",
        "coordinates": [
          121.0523427,
          14.7209042
        ]
      },
      "id": "node/4333492990"
    },
    {
      "type": "Feature",
      "properties": {
        "@id": "node/4389457695",
        "bench": "yes",
        "bus": "yes",
        "highway": "bus_stop",
        "name": "East Avenue & V. Luna Road",
        "network": "LTFRB PUB",
        "network:wikidata": "Q6483998",
        "operator": "Metropolitan Manila Development Authority",
        "public_transport": "platform",
        "shelter": "yes"
      },
      "geometry": {
        "type": "Point",
        "coordinates": [
          121.0461919,
          14.6386522
        ]
      },
      "id": "node/4389457695"
    },
    {
      "type": "Feature",
      "properties": {
        "@id": "node/4389589690",
        "bus": "yes",
        "highway": "bus_stop",
        "name": "Philcoa Terminal at Masaya Street",
        "network": "LTFRB–National Capital Region",
        "network:wikidata": "Q6483998",
        "public_transport": "platform"
      },
      "geometry": {
        "type": "Point",
        "coordinates": [
          121.0532557,
          14.6526844
        ]
      },
      "id": "node/4389589690"
    },
    {
      "type": "Feature",
      "properties": {
        "@id": "node/4389589996",
        "bus": "yes",
        "highway": "bus_stop",
        "name": "East Avenue & East Avenue Medical Center",
        "network": "LTFRB–National Capital Region",
        "network:wikidata": "Q6483998",
        "operator": "Land Transportation Franchising and Regulatory Board",
        "public_transport": "platform"
      },
      "geometry": {
        "type": "Point",
        "coordinates": [
          121.0473375,
          14.6424991
        ]
      },
      "id": "node/4389589996"
    },
    {
      "type": "Feature",
      "properties": {
        "@id": "node/4412513811",
        "bus": "yes",
        "highway": "bus_stop",
        "name": "University Avenue & UP Checkpoint",
        "network": "LTFRB–National Capital Region",
        "network:wikidata": "Q6483998",
        "public_transport": "platform"
      },
      "geometry": {
        "type": "Point",
        "coordinates": [
          121.0620271,
          14.6550334
        ]
      },
      "id": "node/4412513811"
    },
    {
      "type": "Feature",
      "properties": {
        "@id": "node/4412514762",
        "bus": "yes",
        "highway": "bus_stop",
        "mapillary": "993040181804991",
        "name": "Quirino Avenue & Sampaguita Residence Hall",
        "network": "LTFRB–National Capital Region",
        "network:wikidata": "Q6483998",
        "public_transport": "platform",
        "shelter": "yes"
      },
      "geometry": {
        "type": "Point",
        "coordinates": [
          121.0708236,
          14.6524505
        ]
      },
      "id": "node/4412514762"
    },
    {
      "type": "Feature",
      "properties": {
        "@id": "node/4412514765",
        "bus": "yes",
        "highway": "bus_stop",
        "name": "Quirino Avenue & Africa Street",
        "network": "LTFRB–National Capital Region",
        "network:wikidata": "Q6483998",
        "public_transport": "platform"
      },
      "geometry": {
        "type": "Point",
        "coordinates": [
          121.071529,
          14.652479
        ]
      },
      "id": "node/4412514765"
    },
    {
      "type": "Feature",
      "properties": {
        "@id": "node/4412514934",
        "bus": "yes",
        "highway": "bus_stop",
        "name": "Africa Street & Benitez Hall",
        "network": "LTFRB–National Capital Region",
        "network:wikidata": "Q6483998",
        "public_transport": "platform"
      },
      "geometry": {
        "type": "Point",
        "coordinates": [
          121.0717036,
          14.65359
        ]
      },
      "id": "node/4412514934"
    },
    {
      "type": "Feature",
      "properties": {
        "@id": "node/4427432497",
        "bus": "yes",
        "description": "Pantranco Line, PHILCOA Line",
        "highway": "bus_stop",
        "name": "Vinzons Hall",
        "public_transport": "stop_position",
        "share_taxi": "yes"
      },
      "geometry": {
        "type": "Point",
        "coordinates": [
          121.0730471,
          14.6544429
        ]
      },
      "id": "node/4427432497"
    },
    {
      "type": "Feature",
      "properties": {
        "@id": "node/4433881691",
        "highway": "bus_stop",
        "name": "Quezon City Hall",
        "operator": "Lungsod Quezon",
        "route_ref": "QC2"
      },
      "geometry": {
        "type": "Point",
        "coordinates": [
          121.0521391,
          14.6502384
        ]
      },
      "id": "node/4433881691"
    },
    {
      "type": "Feature",
      "properties": {
        "@id": "node/4449332573",
        "highway": "bus_stop",
        "public_transport": "platform",
        "shelter": "yes"
      },
      "geometry": {
        "type": "Point",
        "coordinates": [
          121.0809889,
          14.6739732
        ]
      },
      "id": "node/4449332573"
    },
    {
      "type": "Feature",
      "properties": {
        "@id": "node/4879643688",
        "bus": "yes",
        "highway": "bus_stop",
        "name": "Balintawak",
        "public_transport": "platform"
      },
      "geometry": {
        "type": "Point",
        "coordinates": [
          121.0037657,
          14.6577194
        ]
      },
      "id": "node/4879643688"
    },
    {
      "type": "Feature",
      "properties": {
        "@id": "node/5016927123",
        "bus": "yes",
        "highway": "bus_stop",
        "name": "Mindanao Avenue & Old Sauyo Road",
        "network": "LTFRB–National Capital Region",
        "network:wikidata": "Q6483998",
        "public_transport": "platform",
        "route_ref": "4;5"
      },
      "geometry": {
        "type": "Point",
        "coordinates": [
          121.0308949,
          14.6879324
        ]
      },
      "id": "node/5016927123"
    },
    {
      "type": "Feature",
      "properties": {
        "@id": "node/5021886322",
        "highway": "bus_stop",
        "name": "Batasan Road & Litex Road",
        "network": "QCityBus",
        "operator": "Lungsod Quezon",
        "public_transport": "platform",
        "route_ref": "QC2"
      },
      "geometry": {
        "type": "Point",
        "coordinates": [
          121.0882199,
          14.7002233
        ]
      },
      "id": "node/5021886322"
    },
    {
      "type": "Feature",
      "properties": {
        "@id": "node/5046318431",
        "bus": "yes",
        "highway": "bus_stop",
        "name": "Mindanao Avenue & Old Sauyo Road",
        "network": "LTFRB–National Capital Region",
        "network:wikidata": "Q6483998",
        "public_transport": "platform",
        "route_ref": "QC4;QC5"
      },
      "geometry": {
        "type": "Point",
        "coordinates": [
          121.0309448,
          14.6883578
        ]
      },
      "id": "node/5046318431"
    },
    {
      "type": "Feature",
      "properties": {
        "@id": "node/5170576322",
        "highway": "bus_stop",
        "name": "San Fransisco TODA Terminal"
      },
      "geometry": {
        "type": "Point",
        "coordinates": [
          121.0390918,
          14.705036
        ]
      },
      "id": "node/5170576322"
    },
    {
      "type": "Feature",
      "properties": {
        "@id": "node/5284251072",
        "bus": "yes",
        "highway": "bus_stop",
        "name": "Quezon Avenue & EDSA",
        "network": "LTFRB PUB",
        "network:wikidata": "Q6483998",
        "public_transport": "platform"
      },
      "geometry": {
        "type": "Point",
        "coordinates": [
          121.0371494,
          14.6437772
        ]
      },
      "id": "node/5284251072"
    },
    {
      "type": "Feature",
      "properties": {
        "@id": "node/5286822434",
        "bus": "yes",
        "highway": "bus_stop",
        "name": "Commonwealth Avenue & UP Ayala Techno Hub",
        "network": "LTFRB PUJ",
        "public_transport": "platform",
        "share_taxi": "yes"
      },
      "geometry": {
        "type": "Point",
        "coordinates": [
          121.0578073,
          14.6573573
        ]
      },
      "id": "node/5286822434"
    },
    {
      "type": "Feature",
      "properties": {
        "@id": "node/5292873914",
        "highway": "bus_stop",
        "name": "Quezon City Hall",
        "operator": "Lungsod Quezon",
        "route_ref": "QC5;QC6",
        "shelter": "yes"
      },
      "geometry": {
        "type": "Point",
        "coordinates": [
          121.0518178,
          14.6493632
        ]
      },
      "id": "node/5292873914"
    },
    {
      "type": "Feature",
      "properties": {
        "@id": "node/5318069729",
        "bench": "no",
        "bin": "no",
        "bus": "yes",
        "highway": "bus_stop",
        "lit": "yes",
        "name": "Quezon Avenue & Santo Domingo Church",
        "network": "LTFRB–National Capital Region",
        "network:wikidata": "Q6483998",
        "public_transport": "platform",
        "shelter": "no"
      },
      "geometry": {
        "type": "Point",
        "coordinates": [
          121.0104923,
          14.625521
        ]
      },
      "id": "node/5318069729"
    },
    {
      "type": "Feature",
      "properties": {
        "@id": "node/5318069730",
        "bench": "no",
        "bin": "no",
        "bus": "yes",
        "highway": "bus_stop",
        "lit": "no",
        "name": "Quezon Avenue & Banawe Street",
        "network": "LTFRB–National Capital Region",
        "network:wikidata": "Q6483998",
        "operator": "Metropolitan Manila Development Authority",
        "public_transport": "platform",
        "shelter": "no"
      },
      "geometry": {
        "type": "Point",
        "coordinates": [
          121.0084451,
          14.6237404
        ]
      },
      "id": "node/5318069730"
    },
    {
      "type": "Feature",
      "properties": {
        "@id": "node/5318077823",
        "bus": "yes",
        "highway": "bus_stop",
        "name": "Quezon Avenue & Scout Chuatoco Street",
        "network": "LTFRB PUB",
        "network:wikidata": "Q6483998",
        "public_transport": "platform"
      },
      "geometry": {
        "type": "Point",
        "coordinates": [
          121.0158057,
          14.6303287
        ]
      },
      "id": "node/5318077823"
    },
    {
      "type": "Feature",
      "properties": {
        "@id": "node/5319934635",
        "bench": "yes",
        "bin": "yes",
        "check_date:shelter": "2024-02-19",
        "highway": "bus_stop",
        "lit": "no",
        "name:signed": "no",
        "shelter": "yes"
      },
      "geometry": {
        "type": "Point",
        "coordinates": [
          121.0686282,
          14.649896
        ]
      },
      "id": "node/5319934635"
    },
    {
      "type": "Feature",
      "properties": {
        "@id": "node/5320191290",
        "bus": "yes",
        "highway": "bus_stop",
        "loc_ref": "2;1",
        "name": "SM City North EDSA",
        "public_transport": "platform;stop_position"
      },
      "geometry": {
        "type": "Point",
        "coordinates": [
          121.029254,
          14.6562254
        ]
      },
      "id": "node/5320191290"
    },
    {
      "type": "Feature",
      "properties": {
        "@id": "node/5352035119",
        "bus": "yes",
        "highway": "bus_stop",
        "name": "Philcoa Terminal",
        "previously": "node:1263096753;node:345471842",
        "public_transport": "stop_position",
        "share_taxi": "yes"
      },
      "geometry": {
        "type": "Point",
        "coordinates": [
          121.0532179,
          14.6526736
        ]
      },
      "id": "node/5352035119"
    },
    {
      "type": "Feature",
      "properties": {
        "@id": "node/5401255243",
        "highway": "bus_stop",
        "name": "Balintawak"
      },
      "geometry": {
        "type": "Point",
        "coordinates": [
          121.0056675,
          14.6574372
        ]
      },
      "id": "node/5401255243"
    },
    {
      "type": "Feature",
      "properties": {
        "@id": "node/5416345926",
        "bus": "yes",
        "highway": "bus_stop",
        "public_transport": "platform"
      },
      "geometry": {
        "type": "Point",
        "coordinates": [
          120.9992993,
          14.6551601
        ]
      },
      "id": "node/5416345926"
    },
    {
      "type": "Feature",
      "properties": {
        "@id": "node/5941618073",
        "bus": "yes",
        "highway": "bus_stop",
        "name": "Osmeña Avenue & Villamor Hall",
        "network": "LTFRB–National Capital Region",
        "network:wikidata": "Q6483998",
        "public_transport": "platform"
      },
      "geometry": {
        "type": "Point",
        "coordinates": [
          121.065873,
          14.6561369
        ]
      },
      "id": "node/5941618073"
    },
    {
      "type": "Feature",
      "properties": {
        "@id": "node/6046401628",
        "bus": "yes",
        "highway": "bus_stop",
        "name": "EDSA-Ortigas",
        "operator": "Metropolitan Manila Development Authority",
        "public_transport": "platform",
        "route_ref": "B;C"
      },
      "geometry": {
        "type": "Point",
        "coordinates": [
          121.0581887,
          14.5915874
        ]
      },
      "id": "node/6046401628"
    },
    {
      "type": "Feature",
      "properties": {
        "@id": "node/6351453998",
        "bus": "yes",
        "highway": "bus_stop",
        "name": "Parking",
        "public_transport": "platform"
      },
      "geometry": {
        "type": "Point",
        "coordinates": [
          121.0295785,
          14.6576456
        ]
      },
      "id": "node/6351453998"
    },
    {
      "type": "Feature",
      "properties": {
        "@id": "node/6541409196",
        "highway": "bus_stop",
        "name": "Ayala Malls Cloverleaf",
        "network": "LTFRB–National Capital Region",
        "network:wikidata": "Q6483998",
        "public_transport": "platform"
      },
      "geometry": {
        "type": "Point",
        "coordinates": [
          120.9998109,
          14.6557355
        ]
      },
      "id": "node/6541409196"
    },
    {
      "type": "Feature",
      "properties": {
        "@id": "node/6622467000",
        "bus": "yes",
        "highway": "bus_stop",
        "name": "Miriam Defensor-Santiago Avenue & NAPOCOR Compound",
        "public_transport": "platform",
        "route_ref": "5;7"
      },
      "geometry": {
        "type": "Point",
        "coordinates": [
          121.0417789,
          14.6452223
        ]
      },
      "id": "node/6622467000"
    },
    {
      "type": "Feature",
      "properties": {
        "@id": "node/6637448327",
        "bus": "yes",
        "highway": "bus_stop",
        "loc_ref": "4",
        "name": "SM City North EDSA",
        "public_transport": "platform;stop_position"
      },
      "geometry": {
        "type": "Point",
        "coordinates": [
          121.0291355,
          14.6562509
        ]
      },
      "id": "node/6637448327"
    },
    {
      "type": "Feature",
      "properties": {
        "@id": "node/6637448328",
        "bus": "yes",
        "highway": "bus_stop",
        "loc_ref": "3",
        "name": "SM City North EDSA",
        "public_transport": "platform;stop_position"
      },
      "geometry": {
        "type": "Point",
        "coordinates": [
          121.0291954,
          14.6562389
        ]
      },
      "id": "node/6637448328"
    },
    {
      "type": "Feature",
      "properties": {
        "@id": "node/6696069685",
        "addr:street": "Colonel Bonny Serrano Avenue",
        "bus": "yes",
        "highway": "bus_stop",
        "name": "Boni Serrano at Katipunan",
        "network": "PUB;PUJ",
        "public_transport": "platform"
      },
      "geometry": {
        "type": "Point",
        "coordinates": [
          121.0713871,
          14.6143035
        ]
      },
      "id": "node/6696069685"
    },
    {
      "type": "Feature",
      "properties": {
        "@id": "node/7078650562",
        "bench": "no",
        "bin": "no",
        "bus": "yes",
        "highway": "bus_stop",
        "lit": "yes",
        "name": "Robinsons Galleria",
        "public_transport": "platform",
        "share_taxi": "yes",
        "shelter": "yes"
      },
      "geometry": {
        "type": "Point",
        "coordinates": [
          121.0594932,
          14.5921933
        ]
      },
      "id": "node/7078650562"
    },
    {
      "type": "Feature",
      "properties": {
        "@id": "node/7284605152",
        "bus": "yes",
        "highway": "bus_stop",
        "name": "Aurora Boulevard & LRT Katipunan Station",
        "network": "QCityBus",
        "operator": "Lungsod Quezon",
        "public_transport": "platform"
      },
      "geometry": {
        "type": "Point",
        "coordinates": [
          121.0727204,
          14.6311738
        ]
      },
      "id": "node/7284605152"
    },
    {
      "type": "Feature",
      "properties": {
        "@id": "node/7491756457",
        "highway": "bus_stop",
        "name": "Batasan Road & Litex Road",
        "network": "QCityBus",
        "operator": "Lungsod Quezon",
        "public_transport": "platform",
        "route_ref": "QC2"
      },
      "geometry": {
        "type": "Point",
        "coordinates": [
          121.0882382,
          14.7001339
        ]
      },
      "id": "node/7491756457"
    },
    {
      "type": "Feature",
      "properties": {
        "@id": "node/7493922656",
        "highway": "bus_stop",
        "name": "Philam QC"
      },
      "geometry": {
        "type": "Point",
        "coordinates": [
          121.0356196,
          14.6475776
        ]
      },
      "id": "node/7493922656"
    },
    {
      "type": "Feature",
      "properties": {
        "@id": "node/7494786714",
        "bus": "yes",
        "highway": "bus_stop",
        "loc_ref": "5",
        "name": "SM City North EDSA",
        "public_transport": "platform;stop_position"
      },
      "geometry": {
        "type": "Point",
        "coordinates": [
          121.0290756,
          14.6562638
        ]
      },
      "id": "node/7494786714"
    },
    {
      "type": "Feature",
      "properties": {
        "@id": "node/7494786715",
        "bus": "yes",
        "highway": "bus_stop",
        "loc_ref": "6",
        "name": "SM City North EDSA",
        "public_transport": "platform;stop_position"
      },
      "geometry": {
        "type": "Point",
        "coordinates": [
          121.0290164,
          14.656277
        ]
      },
      "id": "node/7494786715"
    },
    {
      "type": "Feature",
      "properties": {
        "@id": "node/7494786716",
        "bus": "yes",
        "highway": "bus_stop",
        "loc_ref": "7",
        "name": "SM City North EDSA",
        "public_transport": "platform;stop_position"
      },
      "geometry": {
        "type": "Point",
        "coordinates": [
          121.0289569,
          14.656291
        ]
      },
      "id": "node/7494786716"
    },
    {
      "type": "Feature",
      "properties": {
        "@id": "node/7494786717",
        "bus": "yes",
        "highway": "bus_stop",
        "loc_ref": "8",
        "name": "SM City North EDSA",
        "public_transport": "platform;stop_position"
      },
      "geometry": {
        "type": "Point",
        "coordinates": [
          121.028897,
          14.6563043
        ]
      },
      "id": "node/7494786717"
    },
    {
      "type": "Feature",
      "properties": {
        "@id": "node/7494786718",
        "bus": "yes",
        "highway": "bus_stop",
        "loc_ref": "9",
        "name": "SM City North EDSA",
        "public_transport": "platform;stop_position"
      },
      "geometry": {
        "type": "Point",
        "coordinates": [
          121.0288363,
          14.6563176
        ]
      },
      "id": "node/7494786718"
    },
    {
      "type": "Feature",
      "properties": {
        "@id": "node/7514390220",
        "bus": "yes",
        "highway": "bus_stop",
        "name": "P. Tuazon Boulevard & Ali Mall",
        "network": "LTFRB–National Capital Region",
        "network:wikidata": "Q6483998",
        "public_transport": "platform"
      },
      "geometry": {
        "type": "Point",
        "coordinates": [
          121.0572022,
          14.6190681
        ]
      },
      "id": "node/7514390220"
    },
    {
      "type": "Feature",
      "properties": {
        "@id": "node/7535523358",
        "bus": "yes",
        "highway": "bus_stop",
        "name": "Quezon Avenue & Philippine Children's Medical Center",
        "public_transport": "platform"
      },
      "geometry": {
        "type": "Point",
        "coordinates": [
          121.0420314,
          14.646709
        ]
      },
      "id": "node/7535523358"
    },
    {
      "type": "Feature",
      "properties": {
        "@id": "node/7535900393",
        "highway": "bus_stop",
        "name": "Lagro",
        "public_transport": "platform"
      },
      "geometry": {
        "type": "Point",
        "coordinates": [
          121.069065,
          14.7354224
        ]
      },
      "id": "node/7535900393"
    },
    {
      "type": "Feature",
      "properties": {
        "@id": "node/7535900394",
        "highway": "bus_stop",
        "name": "Lagro",
        "public_transport": "platform"
      },
      "geometry": {
        "type": "Point",
        "coordinates": [
          121.0697007,
          14.7359451
        ]
      },
      "id": "node/7535900394"
    },
    {
      "type": "Feature",
      "properties": {
        "@id": "node/7535900396",
        "bus": "yes",
        "highway": "bus_stop",
        "name": "Quirino Highway & Zabarte Road",
        "network": "LTFRB PUB",
        "network:wikidata": "Q6483998",
        "public_transport": "platform"
      },
      "geometry": {
        "type": "Point",
        "coordinates": [
          121.0490223,
          14.731959
        ]
      },
      "id": "node/7535900396"
    },
    {
      "type": "Feature",
      "properties": {
        "@id": "node/7535900397",
        "bus": "yes",
        "highway": "bus_stop",
        "name": "Quirino Highway & Zabarte Road",
        "network": "LTFRB–National Capital Region",
        "network:wikidata": "Q6483998",
        "public_transport": "platform"
      },
      "geometry": {
        "type": "Point",
        "coordinates": [
          121.0492131,
          14.7319113
        ]
      },
      "id": "node/7535900397"
    },
    {
      "type": "Feature",
      "properties": {
        "@id": "node/7535900399",
        "bus": "yes",
        "highway": "bus_stop",
        "name": "Quirino Highway & Ramirez Street",
        "network": "LTFRB PUB",
        "network:wikidata": "Q6483998",
        "public_transport": "platform"
      },
      "geometry": {
        "type": "Point",
        "coordinates": [
          121.040301,
          14.7219514
        ]
      },
      "id": "node/7535900399"
    },
    {
      "type": "Feature",
      "properties": {
        "@id": "node/7535900400",
        "alt_name": "Nova Proper",
        "bus": "yes",
        "highway": "bus_stop",
        "name": "Quirino Highway & Ramirez Street",
        "network": "LTFRB–National Capital Region",
        "network:wikidata": "Q6483998",
        "public_transport": "platform"
      },
      "geometry": {
        "type": "Point",
        "coordinates": [
          121.0403242,
          14.7218242
        ]
      },
      "id": "node/7535900400"
    },
    {
      "type": "Feature",
      "properties": {
        "@id": "node/7535900401",
        "bus": "yes",
        "highway": "bus_stop",
        "name": "Quirino Highway & Don Julio Gregorio Street",
        "network": "LTFRB–National Capital Region",
        "network:wikidata": "Q6483998",
        "public_transport": "platform"
      },
      "geometry": {
        "type": "Point",
        "coordinates": [
          121.0296549,
          14.6927221
        ]
      },
      "id": "node/7535900401"
    },
    {
      "type": "Feature",
      "properties": {
        "@id": "node/7535900402",
        "bus": "yes",
        "highway": "bus_stop",
        "name": "Quirino Highway & Don Julio Gregorio Street",
        "network": "LTFRB–National Capital Region",
        "network:wikidata": "Q6483998",
        "public_transport": "platform",
        "route_ref": "33;40"
      },
      "geometry": {
        "type": "Point",
        "coordinates": [
          121.030134,
          14.6930623
        ]
      },
      "id": "node/7535900402"
    },
    {
      "type": "Feature",
      "properties": {
        "@id": "node/7535900403",
        "highway": "bus_stop",
        "name": "Mindanao Avenue & Belfast Avenue",
        "network": "LTFRB–National Capital Region",
        "network:wikidata": "Q6483998",
        "public_transport": "platform"
      },
      "geometry": {
        "type": "Point",
        "coordinates": [
          121.0585991,
          14.7271422
        ]
      },
      "id": "node/7535900403"
    },
    {
      "type": "Feature",
      "properties": {
        "@id": "node/7535900404",
        "highway": "bus_stop",
        "name": "Belfast Avenue & Quirino Highway",
        "network": "LTFRB–National Capital Region",
        "network:wikidata": "Q6483998",
        "public_transport": "platform"
      },
      "geometry": {
        "type": "Point",
        "coordinates": [
          121.055597,
          14.7337839
        ]
      },
      "id": "node/7535900404"
    },
    {
      "type": "Feature",
      "properties": {
        "@id": "node/7535900405",
        "bus": "yes",
        "highway": "bus_stop",
        "name": "Quirino Highway & T. Carreon Street",
        "network": "LTFRB–National Capital Region",
        "network:wikidata": "Q6483998",
        "public_transport": "platform",
        "route_ref": "33;40"
      },
      "geometry": {
        "type": "Point",
        "coordinates": [
          121.0325037,
          14.6968134
        ]
      },
      "id": "node/7535900405"
    },
    {
      "type": "Feature",
      "properties": {
        "@id": "node/7535900406",
        "bus": "yes",
        "highway": "bus_stop",
        "name": "Quirino Highway & Rockville Avenue",
        "network": "LTFRB–National Capital Region",
        "network:wikidata": "Q6483998",
        "public_transport": "platform"
      },
      "geometry": {
        "type": "Point",
        "coordinates": [
          121.0355522,
          14.7015422
        ]
      },
      "id": "node/7535900406"
    },
    {
      "type": "Feature",
      "properties": {
        "@id": "node/7535900407",
        "bus": "yes",
        "highway": "bus_stop",
        "name": "Quirino Highway & T. Carreon Street",
        "network": "LTFRB–National Capital Region",
        "network:wikidata": "Q6483998",
        "public_transport": "platform",
        "route_ref": "33;40"
      },
      "geometry": {
        "type": "Point",
        "coordinates": [
          121.0327754,
          14.6969585
        ]
      },
      "id": "node/7535900407"
    },
    {
      "type": "Feature",
      "properties": {
        "@id": "node/7535900408",
        "bus": "yes",
        "highway": "bus_stop",
        "name": "Quirino Highway & Mindanao Avenue",
        "network": "LTFRB–National Capital Region",
        "network:wikidata": "Q6483998",
        "public_transport": "platform",
        "route_ref": "33;40"
      },
      "geometry": {
        "type": "Point",
        "coordinates": [
          121.0283496,
          14.6910188
        ]
      },
      "id": "node/7535900408"
    },
    {
      "type": "Feature",
      "properties": {
        "@id": "node/7539417167",
        "highway": "bus_stop",
        "name": "Aurora Boulevard & Araneta Avenue",
        "public_transport": "platform"
      },
      "geometry": {
        "type": "Point",
        "coordinates": [
          121.0192993,
          14.6060424
        ]
      },
      "id": "node/7539417167"
    },
    {
      "type": "Feature",
      "properties": {
        "@id": "node/7539417182",
        "bench": "yes",
        "bus": "yes",
        "highway": "bus_stop",
        "name": "Aurora Boulevard & Doña Hemady Street",
        "network": "LTFRB PUB",
        "network:wikidata": "Q6483998",
        "public_transport": "platform",
        "shelter": "yes"
      },
      "geometry": {
        "type": "Point",
        "coordinates": [
          121.0373788,
          14.6153056
        ]
      },
      "id": "node/7539417182"
    },
    {
      "type": "Feature",
      "properties": {
        "@id": "node/7539427568",
        "bus": "yes",
        "highway": "bus_stop",
        "name": "Gilmore/1st Street",
        "network": "QCityBus",
        "operator": "Lungsod Quezon",
        "public_transport": "platform",
        "route_ref": "11;QC6"
      },
      "geometry": {
        "type": "Point",
        "coordinates": [
          121.03531,
          14.6126943
        ]
      },
      "id": "node/7539427568"
    },
    {
      "type": "Feature",
      "properties": {
        "@id": "node/7604637442",
        "highway": "bus_stop",
        "lit": "yes",
        "name": "E. Rodriguez Jr. Avenue & Green Meadows Avenue",
        "network": "LTFRB–National Capital Region",
        "network:wikidata": "Q6483998",
        "operator": "Land Transportation Franchising and Regulatory Board",
        "public_transport": "platform",
        "route_ref": "18;36;39;41;50;56;61;205;QC7"
      },
      "geometry": {
        "type": "Point",
        "coordinates": [
          121.0792159,
          14.6004217
        ]
      },
      "id": "node/7604637442"
    },
    {
      "type": "Feature",
      "properties": {
        "@id": "node/7604637445",
        "bus": "yes",
        "highway": "bus_stop",
        "lit": "yes",
        "name": "Katipunan Avenue & P. Tuazon Boulevard",
        "network": "LTFRB–National Capital Region",
        "network:wikidata": "Q6483998",
        "operator": "Lungsod Quezon",
        "public_transport": "platform",
        "route_ref": "18;36;39;41;50;59;QC7"
      },
      "geometry": {
        "type": "Point",
        "coordinates": [
          121.0738722,
          14.6231804
        ]
      },
      "id": "node/7604637445"
    },
    {
      "type": "Feature",
      "properties": {
        "@id": "node/7604637461",
        "bus": "yes",
        "highway": "bus_stop",
        "name": "Katipunan Avenue & UP Town Center",
        "network": "PUB;PUJ",
        "operator": "Metropolitan Manila Development Authority",
        "public_transport": "platform",
        "shelter": "yes"
      },
      "geometry": {
        "type": "Point",
        "coordinates": [
          121.074239,
          14.6503968
        ]
      },
      "id": "node/7604637461"
    },
    {
      "type": "Feature",
      "properties": {
        "@id": "node/7604637462",
        "bus": "yes",
        "highway": "bus_stop",
        "name": "Katipunan Avenue & Aurora Boulevard South",
        "network": "LTFRB–National Capital Region",
        "network:wikidata": "Q6483998",
        "operator": "Lungsod Quezon",
        "public_transport": "platform",
        "route_ref": "18;36;39;41;50;51;59;QC7",
        "wheelchair": "limited"
      },
      "geometry": {
        "type": "Point",
        "coordinates": [
          121.0740616,
          14.6270983
        ]
      },
      "id": "node/7604637462"
    },
    {
      "type": "Feature",
      "properties": {
        "@id": "node/7604637468",
        "bus": "yes",
        "highway": "bus_stop",
        "name": "Congressional Avenue & Senatorial Drive",
        "network": "LTFRB PUB",
        "network:wikidata": "Q6483998",
        "operator": "Land Transportation Franchising and Regulatory Board",
        "public_transport": "platform",
        "route_ref": "19",
        "wheelchair": "limited"
      },
      "geometry": {
        "type": "Point",
        "coordinates": [
          121.0295742,
          14.6652624
        ]
      },
      "id": "node/7604637468"
    },
    {
      "type": "Feature",
      "properties": {
        "@id": "node/7604637469",
        "bus": "yes",
        "highway": "bus_stop",
        "name": "Congressional Avenue & Shorthorn Street",
        "network": "LTFRB PUB",
        "network:wikidata": "Q6483998",
        "operator": "Land Transportation Franchising and Regulatory Board",
        "public_transport": "platform",
        "route_ref": "19",
        "wheelchair": "limited"
      },
      "geometry": {
        "type": "Point",
        "coordinates": [
          121.0225756,
          14.6635453
        ]
      },
      "id": "node/7604637469"
    },
    {
      "type": "Feature",
      "properties": {
        "@id": "node/7657783296",
        "bus": "yes",
        "highway": "bus_stop",
        "name": "A. Bonifacio Avenue & Mauban Street",
        "network": "LTFRB–National Capital Region",
        "network:wikidata": "Q6483998",
        "public_transport": "platform"
      },
      "geometry": {
        "type": "Point",
        "coordinates": [
          120.9923297,
          14.6403493
        ]
      },
      "id": "node/7657783296"
    },
    {
      "type": "Feature",
      "properties": {
        "@id": "node/7657783302",
        "bench": "yes",
        "bus": "yes",
        "highway": "bus_stop",
        "name": "A. Bonifacio Avenue & Blumentritt Road",
        "network": "LTFRB–National Capital Region",
        "network:wikidata": "Q6483998",
        "public_transport": "platform",
        "shelter": "yes"
      },
      "geometry": {
        "type": "Point",
        "coordinates": [
          120.9900324,
          14.6265702
        ]
      },
      "id": "node/7657783302"
    },
    {
      "type": "Feature",
      "properties": {
        "@id": "node/7657783304",
        "bus": "yes",
        "highway": "bus_stop",
        "name": "A. Bonifacio Avenue & Del Monte Avenue North",
        "network": "LTFRB–National Capital Region",
        "network:wikidata": "Q6483998",
        "public_transport": "platform"
      },
      "geometry": {
        "type": "Point",
        "coordinates": [
          120.9930568,
          14.6383597
        ]
      },
      "id": "node/7657783304"
    },
    {
      "type": "Feature",
      "properties": {
        "@id": "node/7657783305",
        "bus": "yes",
        "highway": "bus_stop",
        "name": "A. Bonifacio Avenue & Del Monte Avenue South",
        "network": "LTFRB–National Capital Region",
        "network:wikidata": "Q6483998",
        "public_transport": "platform"
      },
      "geometry": {
        "type": "Point",
        "coordinates": [
          120.9933174,
          14.6364482
        ]
      },
      "id": "node/7657783305"
    },
    {
      "type": "Feature",
      "properties": {
        "@id": "node/7657783314",
        "bus": "yes",
        "highway": "bus_stop",
        "name": "A. Bonifacio Avenue & Mauban Street",
        "network": "LTFRB–National Capital Region",
        "network:wikidata": "Q6483998",
        "public_transport": "platform"
      },
      "geometry": {
        "type": "Point",
        "coordinates": [
          120.9920172,
          14.6398686
        ]
      },
      "id": "node/7657783314"
    },
    {
      "type": "Feature",
      "properties": {
        "@id": "node/7657783315",
        "bus": "yes",
        "highway": "bus_stop",
        "name": "A. Bonifacio Avenue & Sergeant Rivera Street",
        "network": "LTFRB–National Capital Region",
        "network:wikidata": "Q6483998",
        "public_transport": "platform"
      },
      "geometry": {
        "type": "Point",
        "coordinates": [
          120.9931994,
          14.6430009
        ]
      },
      "id": "node/7657783315"
    },
    {
      "type": "Feature",
      "properties": {
        "@id": "node/7696100531",
        "bus": "yes",
        "highway": "bus_stop",
        "name": "East Avenue & V. Luna Road",
        "network": "LTFRB PUB",
        "network:wikidata": "Q6483998",
        "public_transport": "platform"
      },
      "geometry": {
        "type": "Point",
        "coordinates": [
          121.0464084,
          14.6384393
        ]
      },
      "id": "node/7696100531"
    },
    {
      "type": "Feature",
      "properties": {
        "@id": "node/7696106887",
        "bench": "yes",
        "bus": "yes",
        "highway": "bus_stop",
        "name": "Kamias Road & Colonel Salgado Street",
        "network": "LTFRB–National Capital Region",
        "network:wikidata": "Q6483998",
        "public_transport": "platform",
        "shelter": "yes"
      },
      "geometry": {
        "type": "Point",
        "coordinates": [
          121.0477797,
          14.63125
        ]
      },
      "id": "node/7696106887"
    },
    {
      "type": "Feature",
      "properties": {
        "@id": "node/7696106888",
        "bus": "yes",
        "highway": "bus_stop",
        "name": "Kamuning Road & Scout Rallos Street",
        "network": "LTFRB PUJ",
        "network:wikidata": "Q6483998",
        "public_transport": "platform"
      },
      "geometry": {
        "type": "Point",
        "coordinates": [
          121.0444719,
          14.630426
        ]
      },
      "id": "node/7696106888"
    },
    {
      "type": "Feature",
      "properties": {
        "@id": "node/7696106889",
        "bus": "yes",
        "highway": "bus_stop",
        "name": "Narra Street & Tanguile Street",
        "network": "LTFRB PUJ",
        "network:wikidata": "Q6483998",
        "public_transport": "platform"
      },
      "geometry": {
        "type": "Point",
        "coordinates": [
          121.0678909,
          14.6328357
        ]
      },
      "id": "node/7696106889"
    },
    {
      "type": "Feature",
      "properties": {
        "@id": "node/7696106890",
        "bus": "yes",
        "highway": "bus_stop",
        "name": "Kamias Road & Kalayaan Avenue",
        "network": "PUJ;QCityBus",
        "operator": "Lungsod Quezon",
        "public_transport": "platform"
      },
      "geometry": {
        "type": "Point",
        "coordinates": [
          121.0548835,
          14.6332897
        ]
      },
      "id": "node/7696106890"
    },
    {
      "type": "Feature",
      "properties": {
        "@id": "node/7696106891",
        "bus": "yes",
        "highway": "bus_stop",
        "name": "Kalayaan Avenue & V. Luna Road",
        "network": "LTFRB–National Capital Region",
        "network:wikidata": "Q6483998",
        "public_transport": "platform"
      },
      "geometry": {
        "type": "Point",
        "coordinates": [
          121.054821,
          14.6367578
        ]
      },
      "id": "node/7696106891"
    },
    {
      "type": "Feature",
      "properties": {
        "@id": "node/7696106892",
        "bus": "yes",
        "highway": "bus_stop",
        "name": "Columbia Street & Yale Street",
        "network": "LTFRB–National Capital Region",
        "network:wikidata": "Q6483998",
        "public_transport": "platform"
      },
      "geometry": {
        "type": "Point",
        "coordinates": [
          121.0541404,
          14.6259576
        ]
      },
      "id": "node/7696106892"
    },
    {
      "type": "Feature",
      "properties": {
        "@id": "node/7696106893",
        "bus": "yes",
        "highway": "bus_stop",
        "name": "15th Avenue & Aurora Boulevard",
        "network": "LTFRB–National Capital Region",
        "network:wikidata": "Q6483998",
        "public_transport": "platform"
      },
      "geometry": {
        "type": "Point",
        "coordinates": [
          121.0573847,
          14.624365
        ]
      },
      "id": "node/7696106893"
    },
    {
      "type": "Feature",
      "properties": {
        "@id": "node/7696106898",
        "bus": "yes",
        "highway": "bus_stop",
        "name": "Kalayaan Avenue & Kamias Road",
        "network": "LTFRB–National Capital Region",
        "network:wikidata": "Q6483998",
        "public_transport": "platform"
      },
      "geometry": {
        "type": "Point",
        "coordinates": [
          121.0541385,
          14.633611
        ]
      },
      "id": "node/7696106898"
    },
    {
      "type": "Feature",
      "properties": {
        "@id": "node/7696106902",
        "bench": "yes",
        "bus": "yes",
        "highway": "bus_stop",
        "name": "Kalayaan/Mapagsangguni",
        "public_transport": "platform",
        "shelter": "yes"
      },
      "geometry": {
        "type": "Point",
        "coordinates": [
          121.054758,
          14.6378959
        ]
      },
      "id": "node/7696106902"
    },
    {
      "type": "Feature",
      "properties": {
        "@id": "node/7697507126",
        "amenity": "shelter",
        "bench": "yes",
        "highway": "bus_stop",
        "name": "E. Rodriguez Jr. Avenue & Green Meadows Gate 6 Footbridge",
        "network": "LTFRB–National Capital Region",
        "network:wikidata": "Q6483998",
        "public_transport": "platform",
        "route_ref": "16;18;36;39;41;50;56;61;61C;61E;205",
        "shelter_type": "public_transport",
        "wheelchair": "limited"
      },
      "geometry": {
        "type": "Point",
        "coordinates": [
          121.079772,
          14.5955518
        ]
      },
      "id": "node/7697507126"
    },
    {
      "type": "Feature",
      "properties": {
        "@id": "node/7785881823",
        "bus": "yes",
        "highway": "bus_stop",
        "name": "Aurora Boulevard & 15th Avenue",
        "public_transport": "platform"
      },
      "geometry": {
        "type": "Point",
        "coordinates": [
          121.0575571,
          14.6249686
        ]
      },
      "id": "node/7785881823"
    },
    {
      "type": "Feature",
      "properties": {
        "@id": "node/7785881824",
        "bus": "yes",
        "highway": "bus_stop",
        "name": "Aurora Boulevard & LRT Anonas Station",
        "network": "LTFRB PUB",
        "network:wikidata": "Q6483998",
        "operator": "Lungsod Quezon",
        "public_transport": "platform"
      },
      "geometry": {
        "type": "Point",
        "coordinates": [
          121.065046,
          14.6279557
        ]
      },
      "id": "node/7785881824"
    },
    {
      "type": "Feature",
      "properties": {
        "@id": "node/7785881825",
        "bus": "yes",
        "highway": "bus_stop",
        "name": "Aurora Boulevard & Anonas Street",
        "network": "LTFRB PUB",
        "network:wikidata": "Q6483998",
        "operator": "Lungsod Quezon",
        "public_transport": "platform"
      },
      "geometry": {
        "type": "Point",
        "coordinates": [
          121.0638974,
          14.6279652
        ]
      },
      "id": "node/7785881825"
    },
    {
      "type": "Feature",
      "properties": {
        "@id": "node/7785881827",
        "bus": "yes",
        "highway": "bus_stop",
        "name": "Aurora Boulevard & J.P. Rizal Street",
        "network": "LTFRB PUB",
        "network:wikidata": "Q6483998",
        "operator": "Lungsod Quezon",
        "public_transport": "platform"
      },
      "geometry": {
        "type": "Point",
        "coordinates": [
          121.0686587,
          14.6292168
        ]
      },
      "id": "node/7785881827"
    },
    {
      "type": "Feature",
      "properties": {
        "@id": "node/7785881828",
        "bus": "yes",
        "highway": "bus_stop",
        "name": "Aurora Boulevard & J.P. Rizal Street",
        "network": "LTFRB PUB",
        "network:wikidata": "Q6483998",
        "operator": "Lungsod Quezon",
        "public_transport": "platform"
      },
      "geometry": {
        "type": "Point",
        "coordinates": [
          121.0688174,
          14.6290193
        ]
      },
      "id": "node/7785881828"
    },
    {
      "type": "Feature",
      "properties": {
        "@id": "node/7785881835",
        "bus": "yes",
        "highway": "bus_stop",
        "name": "Marcos Highway & Katipunan Avenue",
        "public_transport": "platform"
      },
      "geometry": {
        "type": "Point",
        "coordinates": [
          121.0747688,
          14.6318845
        ]
      },
      "id": "node/7785881835"
    },
    {
      "type": "Feature",
      "properties": {
        "@id": "node/7789740291",
        "bus": "yes",
        "highway": "bus_stop",
        "name": "Del Monte–Siena College",
        "network": "LTFRB PUJ",
        "network:wikidata": "Q6483998",
        "public_transport": "platform"
      },
      "geometry": {
        "type": "Point",
        "coordinates": [
          121.004515,
          14.6387436
        ]
      },
      "id": "node/7789740291"
    },
    {
      "type": "Feature",
      "properties": {
        "@id": "node/7789740295",
        "bus": "yes",
        "highway": "bus_stop",
        "name": "Del Monte–Siena College",
        "network": "LTFRB PUJ",
        "network:wikidata": "Q6483998",
        "public_transport": "platform"
      },
      "geometry": {
        "type": "Point",
        "coordinates": [
          121.0040015,
          14.6388431
        ]
      },
      "id": "node/7789740295"
    },
    {
      "type": "Feature",
      "properties": {
        "@id": "node/7789740296",
        "bus": "yes",
        "highway": "bus_stop",
        "name": "West Avenue & Bulacan Street",
        "network": "LTFRB PUJ",
        "network:wikidata": "Q6483998",
        "public_transport": "platform"
      },
      "geometry": {
        "type": "Point",
        "coordinates": [
          121.028797,
          14.6505787
        ]
      },
      "id": "node/7789740296"
    },
    {
      "type": "Feature",
      "properties": {
        "@id": "node/7789740297",
        "bus": "yes",
        "highway": "bus_stop",
        "name": "West Avenue & Landbank",
        "public_transport": "platform"
      },
      "geometry": {
        "type": "Point",
        "coordinates": [
          121.029306,
          14.6527965
        ]
      },
      "id": "node/7789740297"
    },
    {
      "type": "Feature",
      "properties": {
        "@id": "node/7789740298",
        "bus": "yes",
        "highway": "bus_stop",
        "name": "West Avenue & North EDSA",
        "network": "LTFRB PUJ",
        "network:wikidata": "Q6483998",
        "public_transport": "platform"
      },
      "geometry": {
        "type": "Point",
        "coordinates": [
          121.0295185,
          14.6538086
        ]
      },
      "id": "node/7789740298"
    },
    {
      "type": "Feature",
      "properties": {
        "@id": "node/7789740300",
        "bus": "yes",
        "highway": "bus_stop",
        "name": "Bulacan Street & West Avenue",
        "public_transport": "platform"
      },
      "geometry": {
        "type": "Point",
        "coordinates": [
          121.0285999,
          14.6509839
        ]
      },
      "id": "node/7789740300"
    },
    {
      "type": "Feature",
      "properties": {
        "@id": "node/7789740301",
        "bus": "yes",
        "highway": "bus_stop",
        "name": "West Avenue & Baler Street",
        "network": "LTFRB PUJ",
        "network:wikidata": "Q6483998",
        "public_transport": "platform"
      },
      "geometry": {
        "type": "Point",
        "coordinates": [
          121.0280354,
          14.6474057
        ]
      },
      "id": "node/7789740301"
    },
    {
      "type": "Feature",
      "properties": {
        "@id": "node/7789740303",
        "bus": "yes",
        "highway": "bus_stop",
        "name": "West Avenue & Baler Street",
        "network": "LTFRB PUJ",
        "network:wikidata": "Q6483998",
        "public_transport": "platform"
      },
      "geometry": {
        "type": "Point",
        "coordinates": [
          121.0284934,
          14.6483754
        ]
      },
      "id": "node/7789740303"
    },
    {
      "type": "Feature",
      "properties": {
        "@id": "node/7789740307",
        "highway": "bus_stop",
        "name": "Kalawag",
        "public_transport": "platform"
      },
      "geometry": {
        "type": "Point",
        "coordinates": [
          121.0269483,
          14.6480382
        ]
      },
      "id": "node/7789740307"
    },
    {
      "type": "Feature",
      "properties": {
        "@id": "node/7789740308",
        "highway": "bus_stop",
        "name": "Kalawag",
        "public_transport": "platform"
      },
      "geometry": {
        "type": "Point",
        "coordinates": [
          121.0271434,
          14.648012
        ]
      },
      "id": "node/7789740308"
    },
    {
      "type": "Feature",
      "properties": {
        "@id": "node/7789740309",
        "highway": "bus_stop",
        "name": "Rest Haven",
        "public_transport": "platform"
      },
      "geometry": {
        "type": "Point",
        "coordinates": [
          121.0250765,
          14.647491
        ]
      },
      "id": "node/7789740309"
    },
    {
      "type": "Feature",
      "properties": {
        "@id": "node/7789740310",
        "highway": "bus_stop",
        "name": "Rest Haven",
        "public_transport": "platform"
      },
      "geometry": {
        "type": "Point",
        "coordinates": [
          121.0251844,
          14.6474385
        ]
      },
      "id": "node/7789740310"
    },
    {
      "type": "Feature",
      "properties": {
        "@id": "node/7789740311",
        "highway": "bus_stop",
        "name": "Miller",
        "public_transport": "platform"
      },
      "geometry": {
        "type": "Point",
        "coordinates": [
          121.0231141,
          14.6469026
        ]
      },
      "id": "node/7789740311"
    },
    {
      "type": "Feature",
      "properties": {
        "@id": "node/7789740312",
        "highway": "bus_stop",
        "name": "Miller",
        "public_transport": "platform"
      },
      "geometry": {
        "type": "Point",
        "coordinates": [
          121.023283,
          14.6468738
        ]
      },
      "id": "node/7789740312"
    },
    {
      "type": "Feature",
      "properties": {
        "@id": "node/7789740313",
        "highway": "bus_stop",
        "name": "Mendoza",
        "public_transport": "platform"
      },
      "geometry": {
        "type": "Point",
        "coordinates": [
          121.0215908,
          14.6464429
        ]
      },
      "id": "node/7789740313"
    },
    {
      "type": "Feature",
      "properties": {
        "@id": "node/7789740314",
        "highway": "bus_stop",
        "name": "Mendoza",
        "public_transport": "platform"
      },
      "geometry": {
        "type": "Point",
        "coordinates": [
          121.0217874,
          14.6464231
        ]
      },
      "id": "node/7789740314"
    },
    {
      "type": "Feature",
      "properties": {
        "@id": "node/7789740315",
        "highway": "bus_stop",
        "name": "Judge Juan Luna",
        "public_transport": "platform"
      },
      "geometry": {
        "type": "Point",
        "coordinates": [
          121.0196337,
          14.6458694
        ]
      },
      "id": "node/7789740315"
    },
    {
      "type": "Feature",
      "properties": {
        "@id": "node/7789740316",
        "highway": "bus_stop",
        "name": "Judge Juan Luna",
        "public_transport": "platform"
      },
      "geometry": {
        "type": "Point",
        "coordinates": [
          121.0202631,
          14.6459594
        ]
      },
      "id": "node/7789740316"
    },
    {
      "type": "Feature",
      "properties": {
        "@id": "node/7789740318",
        "bus": "yes",
        "highway": "bus_stop",
        "name": "FPJ Avenue & Baler Street",
        "network": "LTFRB National Capital Region",
        "network:wikidata": "Q6483998",
        "public_transport": "platform"
      },
      "geometry": {
        "type": "Point",
        "coordinates": [
          121.0171418,
          14.6454619
        ]
      },
      "id": "node/7789740318"
    },
    {
      "type": "Feature",
      "properties": {
        "@id": "node/7789740319",
        "bus": "yes",
        "highway": "bus_stop",
        "name": "FPJ Avenue & Watchtower Compound",
        "network": "LTFRB National Capital Region",
        "network:wikidata": "Q6483998",
        "public_transport": "platform"
      },
      "geometry": {
        "type": "Point",
        "coordinates": [
          121.0166363,
          14.6423802
        ]
      },
      "id": "node/7789740319"
    },
    {
      "type": "Feature",
      "properties": {
        "@id": "node/7789740320",
        "bus": "yes",
        "highway": "bus_stop",
        "name": "FPJ Avenue & Watchtower Compound",
        "network": "LTFRB National Capital Region",
        "network:wikidata": "Q6483998",
        "public_transport": "platform"
      },
      "geometry": {
        "type": "Point",
        "coordinates": [
          121.0168531,
          14.6428814
        ]
      },
      "id": "node/7789740320"
    },
    {
      "type": "Feature",
      "properties": {
        "@id": "node/7789740322",
        "bus": "yes",
        "highway": "bus_stop",
        "name": "Del Monte–Salac",
        "network": "LTFRB PUJ",
        "network:wikidata": "Q6483998",
        "public_transport": "platform"
      },
      "geometry": {
        "type": "Point",
        "coordinates": [
          121.012333,
          14.6397661
        ]
      },
      "id": "node/7789740322"
    },
    {
      "type": "Feature",
      "properties": {
        "@id": "node/7789740323",
        "bus": "yes",
        "highway": "bus_stop",
        "name": "Del Monte–Malac",
        "network": "LTFRB PUJ",
        "network:wikidata": "Q6483998",
        "public_transport": "platform"
      },
      "geometry": {
        "type": "Point",
        "coordinates": [
          121.0116419,
          14.6398318
        ]
      },
      "id": "node/7789740323"
    },
    {
      "type": "Feature",
      "properties": {
        "@id": "node/7789740324",
        "bus": "yes",
        "highway": "bus_stop",
        "name": "Del Monte–Masambong",
        "network": "LTFRB PUJ",
        "network:wikidata": "Q6483998",
        "public_transport": "platform"
      },
      "geometry": {
        "type": "Point",
        "coordinates": [
          121.0093887,
          14.6395408
        ]
      },
      "id": "node/7789740324"
    },
    {
      "type": "Feature",
      "properties": {
        "@id": "node/7789740325",
        "bus": "yes",
        "highway": "bus_stop",
        "name": "Del Monte–Masambong",
        "network": "LTFRB PUJ",
        "network:wikidata": "Q6483998",
        "public_transport": "platform"
      },
      "geometry": {
        "type": "Point",
        "coordinates": [
          121.0100882,
          14.6394534
        ]
      },
      "id": "node/7789740325"
    },
    {
      "type": "Feature",
      "properties": {
        "@id": "node/7789740326",
        "bus": "yes",
        "highway": "bus_stop",
        "name": "Mayon Street & Nicanor Roxas Street",
        "network": "LTFRB PUJ",
        "network:wikidata": "Q6483998",
        "public_transport": "platform"
      },
      "geometry": {
        "type": "Point",
        "coordinates": [
          120.9988019,
          14.6238931
        ]
      },
      "id": "node/7789740326"
    },
    {
      "type": "Feature",
      "properties": {
        "@id": "node/7789740327",
        "bus": "yes",
        "highway": "bus_stop",
        "name": "Nicanor Roxas Street & Dr. Alejos Street",
        "network": "LTFRB PUJ",
        "network:wikidata": "Q6483998",
        "public_transport": "platform"
      },
      "geometry": {
        "type": "Point",
        "coordinates": [
          120.9980884,
          14.6225038
        ]
      },
      "id": "node/7789740327"
    },
    {
      "type": "Feature",
      "properties": {
        "@id": "node/7789740328",
        "bus": "yes",
        "highway": "bus_stop",
        "name": "Nicanor Roxas Street & Blumentritt Street",
        "network": "LTFRB PUJ",
        "network:wikidata": "Q6483998",
        "public_transport": "platform"
      },
      "geometry": {
        "type": "Point",
        "coordinates": [
          120.9967293,
          14.6212743
        ]
      },
      "id": "node/7789740328"
    },
    {
      "type": "Feature",
      "properties": {
        "@id": "node/7789740337",
        "bus": "yes",
        "highway": "bus_stop",
        "name": "Dapitan Street & Iba Street",
        "network": "LTFRB PUJ",
        "network:wikidata": "Q6483998",
        "public_transport": "platform"
      },
      "geometry": {
        "type": "Point",
        "coordinates": [
          120.9982611,
          14.6208377
        ]
      },
      "id": "node/7789740337"
    },
    {
      "type": "Feature",
      "properties": {
        "@id": "node/7789740338",
        "bus": "yes",
        "highway": "bus_stop",
        "name": "Mayon Street & Santa Teresita Barangay Hall",
        "network": "LTFRB PUJ",
        "network:wikidata": "Q6483998",
        "public_transport": "platform"
      },
      "geometry": {
        "type": "Point",
        "coordinates": [
          120.9995037,
          14.6221792
        ]
      },
      "id": "node/7789740338"
    },
    {
      "type": "Feature",
      "properties": {
        "@id": "node/7789740339",
        "bus": "yes",
        "highway": "bus_stop",
        "name": "Mayon Street & Maria Clara Street",
        "network": "LTFRB PUJ",
        "network:wikidata": "Q6483998",
        "public_transport": "platform"
      },
      "geometry": {
        "type": "Point",
        "coordinates": [
          120.9982187,
          14.625144
        ]
      },
      "id": "node/7789740339"
    },
    {
      "type": "Feature",
      "properties": {
        "@id": "node/7789740340",
        "bus": "yes",
        "highway": "bus_stop",
        "name": "Mayon Street & Maria Clara Street",
        "network": "LTFRB PUJ",
        "network:wikidata": "Q6483998",
        "public_transport": "platform"
      },
      "geometry": {
        "type": "Point",
        "coordinates": [
          120.9984415,
          14.6244381
        ]
      },
      "id": "node/7789740340"
    },
    {
      "type": "Feature",
      "properties": {
        "@id": "node/7789740341",
        "bus": "yes",
        "highway": "bus_stop",
        "name": "Mayon Street & Calamba Street",
        "network": "LTFRB PUJ",
        "network:wikidata": "Q6483998",
        "public_transport": "platform"
      },
      "geometry": {
        "type": "Point",
        "coordinates": [
          120.996934,
          14.6278148
        ]
      },
      "id": "node/7789740341"
    },
    {
      "type": "Feature",
      "properties": {
        "@id": "node/7789740342",
        "highway": "bus_stop",
        "name": "Mayon Street & Calamba Street",
        "public_transport": "platform"
      },
      "geometry": {
        "type": "Point",
        "coordinates": [
          120.9971101,
          14.6271982
        ]
      },
      "id": "node/7789740342"
    },
    {
      "type": "Feature",
      "properties": {
        "@id": "node/7789740343",
        "highway": "bus_stop",
        "name": "Mayon Street & N.S. Amoranto Avenue",
        "public_transport": "platform"
      },
      "geometry": {
        "type": "Point",
        "coordinates": [
          120.9960023,
          14.62953
        ]
      },
      "id": "node/7789740343"
    },
    {
      "type": "Feature",
      "properties": {
        "@id": "node/7789740345",
        "bus": "yes",
        "highway": "bus_stop",
        "name": "Mayon Street & N.S. Amoranto Avenue",
        "network": "LTFRB PUJ",
        "network:wikidata": "Q6483998",
        "public_transport": "platform"
      },
      "geometry": {
        "type": "Point",
        "coordinates": [
          120.9957284,
          14.6304979
        ]
      },
      "id": "node/7789740345"
    },
    {
      "type": "Feature",
      "properties": {
        "@id": "node/7789740346",
        "bus": "yes",
        "highway": "bus_stop",
        "name": "Mayon Street & Scout Alcaraz Street",
        "network": "LTFRB PUJ",
        "network:wikidata": "Q6483998",
        "public_transport": "platform"
      },
      "geometry": {
        "type": "Point",
        "coordinates": [
          120.9947099,
          14.633711
        ]
      },
      "id": "node/7789740346"
    },
    {
      "type": "Feature",
      "properties": {
        "@id": "node/7789740347",
        "bus": "yes",
        "highway": "bus_stop",
        "name": "Mayon Street & Scout Alcaraz Street",
        "network": "LTFRB PUJ",
        "network:wikidata": "Q6483998",
        "public_transport": "platform"
      },
      "geometry": {
        "type": "Point",
        "coordinates": [
          120.9947715,
          14.6330699
        ]
      },
      "id": "node/7789740347"
    },
    {
      "type": "Feature",
      "properties": {
        "@id": "node/7789740348",
        "bus": "yes",
        "highway": "bus_stop",
        "name": "Mayon Street & Santa Catalina Street",
        "network": "LTFRB PUJ",
        "network:wikidata": "Q6483998",
        "public_transport": "platform"
      },
      "geometry": {
        "type": "Point",
        "coordinates": [
          120.9941875,
          14.6354056
        ]
      },
      "id": "node/7789740348"
    },
    {
      "type": "Feature",
      "properties": {
        "@id": "node/7789740349",
        "bus": "yes",
        "highway": "bus_stop",
        "name": "Mayon Street & Santa Catalina Street",
        "network": "LTFRB PUJ",
        "network:wikidata": "Q6483998",
        "public_transport": "platform"
      },
      "geometry": {
        "type": "Point",
        "coordinates": [
          120.9942542,
          14.6347406
        ]
      },
      "id": "node/7789740349"
    },
    {
      "type": "Feature",
      "properties": {
        "@id": "node/7789740350",
        "highway": "bus_stop",
        "name": "Mayon/Del Monte",
        "public_transport": "platform"
      },
      "geometry": {
        "type": "Point",
        "coordinates": [
          120.9936789,
          14.6365411
        ]
      },
      "id": "node/7789740350"
    },
    {
      "type": "Feature",
      "properties": {
        "@id": "node/7789740351",
        "bus": "yes",
        "highway": "bus_stop",
        "name": "Del Monte–Cordillera",
        "network": "LTFRB PUJ",
        "network:wikidata": "Q6483998",
        "public_transport": "platform"
      },
      "geometry": {
        "type": "Point",
        "coordinates": [
          120.9967111,
          14.6377295
        ]
      },
      "id": "node/7789740351"
    },
    {
      "type": "Feature",
      "properties": {
        "@id": "node/7789740352",
        "bus": "yes",
        "highway": "bus_stop",
        "name": "Del Monte–Cordillera",
        "network": "LTFRB PUJ",
        "network:wikidata": "Q6483998",
        "public_transport": "platform"
      },
      "geometry": {
        "type": "Point",
        "coordinates": [
          120.9966207,
          14.6378503
        ]
      },
      "id": "node/7789740352"
    },
    {
      "type": "Feature",
      "properties": {
        "@id": "node/7789740353",
        "bus": "yes",
        "highway": "bus_stop",
        "name": "Del Monte–Matutum",
        "network": "LTFRB PUJ",
        "network:wikidata": "Q6483998",
        "public_transport": "platform"
      },
      "geometry": {
        "type": "Point",
        "coordinates": [
          120.9986346,
          14.6379647
        ]
      },
      "id": "node/7789740353"
    },